[
  {
    "id": 0,
    "name": "Bloque A",
    "lat": 4.6609819622582,
    "lon": -74.0596161549797,
    "description": "Cuenta con la capilla en el primer piso. Entre los pisos 2 y 6 se ubican los salones de clase y los baños, destinados a actividades académicas. En el séptimo piso se encuentran la Escuela de Postgrados y el área de Educación Virtual"
  },
  {
    "id": 1,
    "name": "Bloque B",
    "lat": 4.6612256555812,
    "lon": -74.0595379523924,
    "description": "Se encuentran aulas con computadores, los laboratorios de física y la Escuela de Ciencias Exactas e Ingeniería y con un salón de profesores y baños disponibles desde el tercer piso."
  },
  {
    "id": 4,
    "name": "Bloque F",
    "lat": 4.6611701025415,
    "lon": -74.0597040270357,
    "description": "Edificio de ciencias con laboratorios especializados de química, física y biología. Incluye auditorio para conferencias."
  },
  {
    "id": 6,
    "name": "PRIME",
    "lat": 4.6615260954136,
    "lon": -74.0595618398411,
    "description": "Centro de innovación y emprendimiento. Espacio de coworking, salas de reuniones y área de prototipado para proyectos estudiantiles."
  },
  {
    "id": 8,
    "name": "Colores",
    "lat": 4.6612381266711,
    "lon": -74.0593889402125,
    "description": "Zona de recreación y descanso al aire libre. Áreas verdes, bancas y punto de encuentro estudiantil con máquinas expendedoras."
  },
  {
    "id": 9,
    "name": "Cafetería principal",
    "lat": 4.6611156832330,
    "lon": -74.0595288524120,
    "description": "Servicio de alimentación con variedad de menús, snacks y bebidas. Horario de 7am a 7pm. Acepta pagos con tarjeta y efectivo."
  }
]
